City,Region,Latitude,Longitude
São Paulo,São Paulo,-23.55776177,-46.63330827
Salvador,Bahia,-12.97519366,-38.48133343
Belo Horizonte,Minas Gerais,-19.92007158,-43.93934750
Curitiba,Paraná,-25.44147373,-49.26037992
Recife,Pernambuco,-8.05928011,-34.88615622
Porto Alegre,Rio Grande do Sul,-30.03508379,-51.20118972
Campinas,São Paulo,-22.91284730,-47.06332311